[
    {
      "id": 1,
      "name": "Dr.Roger Gordon",
      "field":"Senior Surgeon",
      "hours":"Mon-Tues, 10am-4pm",
      "hoursWeekend":"Fri-Sat, 2pm-8pm",
      "picture":"https://i.ibb.co/ZHsWV5f/Oval8.png"
    },
    {
        "id": 2,
        "name": "Dr. Flora Thornton",
        "field":"Senior Surgeon",
        "hours":"Mon-Tues, 10am-4pm",
        "hoursWeekend":"Fri-Sat, 2pm-8pm",
        "picture":"https://i.ibb.co/89Yr7b0/Oval9.png"
    },
    {
        "id": 3,
        "name": "Dr. Glenn Bishop",
        "field":"Senior Surgeon",
        "hours":"Mon-Tues, 10am-4pm",
        "hoursWeekend":"Fri-Sat, 2pm-8pm",
        "picture": "https://i.ibb.co/89Yr7b0/Oval9.png"
    },
    {
        "id": 4,
        "name": "Dr. Virginia Oliver",
        "field":"Senior Surgeon",
        "hours":"Mon-Tues, 10am-4pm",
        "hoursWeekend":"Fri-Sat, 2pm-8pm",
        "picture":"https://i.ibb.co/ZHsWV5f/Oval8.png"
    },
      {
          "id": 5,
          "name": "Dr. Chester Sharp",
          "field":"Senior Surgeon",
          "hours":"Mon-Tues, 10am-4pm",
          "hoursWeekend":"Fri-Sat, 2pm-8pm",
          "picture":"https://i.ibb.co/89Yr7b0/Oval9.png"
        },
      {
          "id": 6,
          "name": "Dr.Roger Gordon",
          "field":"Senior Surgeon",
          "hours":"Mon-Tues, 10am-4pm",
          "hoursWeekend":"Fri-Sat, 2pm-8pm",
          "picture":"https://i.ibb.co/ZHsWV5f/Oval8.png"      },
      {
        "id": 7,
        "name": "Dr. Chester Sharp",
        "field":"Senior Surgeon",
        "hours":"Mon-Tues, 10am-4pm",
        "hoursWeekend":"Fri-Sat, 2pm-8pm",
        "picture":"https://i.ibb.co/ZHsWV5f/Oval8.png"      },
      {
          "id": 8,
          "name": "Dr. Virginia Oliver",
          "field":"Senior Surgeon",
          "hours":"Mon-Tues, 10am-4pm",
          "hoursWeekend":"Fri-Sat, 2pm-8pm",
          "picture": "https://i.ibb.co/89Yr7b0/Oval9.png"
      },
      {
          "id": 9,
          "name": "Dr.Roger Gordon",
          "field":"Senior Surgeon",
          "hours":"Mon-Tues, 10am-4pm",
          "hoursWeekend":"Fri-Sat, 2pm-8pm",
          "picture": "https://i.ibb.co/89Yr7b0/Oval9.png"
      },
      {
        "id": 10,
        "name": "Dr. Virginia Oliver",
        "field":"Senior Surgeon",
        "hours":"Mon-Tues, 10am-4pm",
        "hoursWeekend":"Fri-Sat, 2pm-8pm",
        "picture": "https://i.ibb.co/89Yr7b0/Oval9.png"
    }
]

